GME_NAAM,lat,lng
Delft,52.011944444,4.359444444
Zwolle,52.516666666,6.1
Assen,53.0,6.55
Utrecht,52.088888888,5.115555555
Alkmaar,52.6289,4.74403
Almelo,52.3575,6.666666666
Amersfoort,52.15,5.38
Appingedam,53.316666666,6.866666666
Wageningen,51.964444444,5.663055555
Maastricht,50.866666666,5.683333333
Arnhem,51.983333333,5.916666666
Veenendaal,52.025,5.555
Woerden,52.085833333,4.883333333
Eijsden-Margraten,50.791667,5.756111
Gulpen-Wittem,50.8161,5.8983
Vaals,50.769444444,6.018055555
Simpelveld,50.835,5.9822
Voerendaal,50.8833,5.9167
Valkenburg aan de Geul,50.864444444,5.830555555
Meerssen,50.8858,5.7519
Weert,51.25,5.7
Venray,51.5258,5.9747
Venlo,51.366666666,6.166666666
Stein,50.9679,5.7652
Sittard-Geleen,51.0,5.85
Schinnen,50.9428,5.8894
Roerdalen,51.1531,6.0792
Peel en Maas,51.31666667,5.98333333
Onderbanken,50.9681,5.9719
Nuth,50.916666666,5.883333333
Nederweert,51.2828,5.7472
Mook en Middelaar,51.7525,5.8817
Maasgouw,51.15,5.8833
Leudal,51.233333333,5.866666666
Landgraaf,50.9083,6.0297
Kerkrade,50.866666666,6.066666666
Horst aan de Maas,51.4369,6.1061
Heerlen,50.883333333,5.983333333
Gennep,51.6942,5.9733
Echt-Susteren,51.0833,5.8667
Brunssum,50.95,5.966666666
Bergen,51.5992,6.0336
Beesel,51.2669,6.0392
Beek,50.9394,5.7961
's-Hertogenbosch,51.6892,5.3031
Aalburg,51.753888888,5.131388888
Alphen-Chaam,51.4992,4.8722
Asten,51.4031,5.7472
Baarle-Nassau,51.45,4.933333333
Bergeijk,51.3203,5.3592
Bergen op Zoom,51.5,4.3
Bernheze,51.6931,5.5253
Best,51.5108,5.3922
Bladel,51.366666666,5.216666666
Boekel,51.6011,5.6742
Boxmeer,51.6483,5.9444
Boxtel,51.5911,5.3275
Breda,51.5875,4.775
Cranendonck,51.2853,5.5881
Cuijk,51.7269,5.8794
Deurne,51.4639,5.7947
Dongen,51.6258,4.9433
Drimmelen,51.694444444,4.797222222
Eersel,51.3572,5.3147
Eindhoven,51.434444444,5.484166666
Etten-Leur,51.5706,4.6356
Geertruidenberg,51.7008,4.8603
Geldrop-Mierlo,51.4336,5.5881
Gemert-Bakel,51.5311,5.7194
Gilze en Rijen,51.5614,4.9333
Goirle,51.5203,5.0671
Grave,51.7592,5.7383
Haaren,51.6017,5.2228
Halderberge,51.5872,4.5167
Heeze-Leende,51.3672,5.5575
Helmond,51.47968,5.65559
Heusden,51.69975,5.16598
Hilvarenbeek,51.4861,5.1367
Laarbeek,51.5161,5.6208
Landerd,51.7186,5.655
Loon op Zand,51.6275,5.0758
Maasdonk,51.7269,5.4594
Mill en Sint Hubert,51.6808,5.7953
Moerdijk,51.655,4.5325
"Nuenen, Gerwen en Nederwetten",51.4869,5.5258
Oirschot,51.5047,5.3128
Oisterwijk,51.5833,5.2
Oosterhout,51.643055555,4.856944444
Oss,51.766666666,5.516666666
Reusel-De Mierden,51.3617,5.1631
Roosendaal,51.5314,4.4556
Rucphen,51.5319,4.5597
Sint Anthonis,51.6258,5.8811
Sint-Michielsgestel,51.6433,5.3586
Someren,51.3847,5.7119
Son en Breugel,51.5158,5.5022
Steenbergen,51.583333333,4.25
Uden,51.666666666,5.616666666
Valkenswaard,51.35,5.4592
Veghel,51.6169,5.5481
Veldhoven,51.42,5.405
Vught,51.65,5.3
Waalre,51.3867,5.4456
Werkendam,51.8097,4.8928
Woensdrecht,51.43,4.305
Woudrichem,51.8133,5.0006
Zundert,51.4703,4.66
Aalsmeer,52.263888888,4.7625
Amstelveen,52.301944444,4.858055555
Amsterdam,52.366666666,4.883333333
Beemster,52.55,4.9278
Bergen,52.6703,4.7054
Beverwijk,52.486388888,4.657222222
Blaricum,52.2728,5.2422
Bloemendaal,52.4028,4.6281
Castricum,52.5517,4.6583
Den Helder,52.958333333,4.758888888
Diemen,52.3439,4.9625
Drechterland,52.666666666,5.166666666
Edam-Volendam,52.5019,5.0614
Enkhuizen,52.7,5.283333333
Graft-De Rijp,52.5589,4.8417
Haarlem,52.380277777,4.640555555
Haarlemmerliede en Spaarnwoude,52.397222222,4.711944444
Haarlemmermeer,52.3008,4.6653
Harenkarspel,52.7344,4.7706
Heemskerk,52.510833333,4.672777777
Heemstede,52.3528,4.62
Heerhugowaard,52.668,4.841
Heiloo,52.6011,4.7019
Hilversum,52.23,5.18
Hollands Kroon,52.8783,4.8114
Hoorn,52.653333333,5.073333333
Huizen,52.2994,5.2531
Koggenland,52.633333333,4.95
Landsmeer,52.4293,4.9136
Langedijk,52.6936,4.7944
Laren,52.254444444,5.231666666
Medemblik,52.767441187,5.103746318
Oostzaan,52.4406,4.8789
Opmeer,52.7033,4.9444
Ouder-Amstel,52.2906,4.9117
Schagen,52.78,4.8
Schermer,52.6067,4.8511
Stede Broec,52.7006,5.2253
Texel,53.066666666,4.8
Uitgeest,52.5292,4.7103
Uithoorn,52.2422,4.825
Velsen,52.466666666,4.616666666
Waterland,52.4511,5.02
Weesp,52.3069,5.0417
Wijdemeren,52.23,5.12
Wormerland,52.5086,4.8714
Zaanstad,52.4697,4.7767
Zandvoort,52.366666666,4.533333333
Zeevang,52.5858,5.0383
Zijpe,52.8228,4.7206
Hof van Twente,52.233333333,6.583333333
Borne,52.3,6.75
Dalfsen,52.503055555,6.259166666
Dinkelland,52.3667,7.0
Deventer,52.25,6.2
Enschede,52.223611111,6.895555555
Haaksbergen,52.1547,6.7419
Hellendoorn,52.3885,6.4497
Hengelo,52.265555555,6.793055555
Losser,52.2617,7.0044
Oldenzaal,52.3125,6.929166666
Olst-Wijhe,52.3333,6.1
Ommen,52.516666666,6.416666666
Raalte,52.4,6.28333333
Rijssen-Holten,52.3,6.5167
Staphorst,52.633333333,6.2
Steenwijkerland,52.7833,6.1167
Tubbergen,52.4,6.7667
Twenterand,52.4,6.6167
Wierden,52.35,6.5833
Zwartewaterland,52.5833,6.0833
Baarn,52.2125,5.2861
Bunnik,52.0672,5.1969
Bunschoten,52.2481,5.3736
De Bilt,52.1119,5.1825
De Ronde Venen,52.2117,4.8914
Eemnes,52.2539,5.2572
Renswoude,52.0739,5.5406
Rhenen,51.9597,5.5689
Soest,52.183333333,5.283333333
Stichtse Vecht,52.161086,5.010794
Utrechtse Heuvelrug,52.0422,5.4506
Houten,52.0261,5.1728
IJsselstein,52.02,5.0422
Leusden,52.1331,5.4297
Lopik,51.9722,4.9464
Montfoort,52.045,4.9508
Nieuwegein,52.0314,5.0919
Oudewater,52.0267,4.8686
Vianen,51.983333333,5.1
Wijk bij Duurstede,51.9761,5.3369
Woudenberg,52.0806,5.4164
Zeist,52.083333333,5.233333333
Waalwijk,51.683333333,5.066666666
Dommelen,51.3569,5.4306
Westerveld,52.7667,6.2333
Bellingwedde,53.0667,7.0667
Bronckhorst,52.05,6.3
Sliedrecht,51.822222222,4.774444444
Ferwerderadiel,53.3294,5.8408
Weststellingwerf,52.883333333,6.0
Ermelo,52.3,5.633055555
Vledder,52.8556,6.2103
Hulsberg,50.8883,5.8553
Leeuwarderadeel,53.266666666,5.766666666
De Werken en Sleeuwijk,51.813072,4.92239
Grafhorst,52.5825,5.9339
Linne,51.1542,5.9392
Belfeld,51.31,6.1144
Culemborg,51.95,5.233333333
Benthuizen,52.0761,4.5447
Bergh,51.883333333,6.25
Bergschenhoek,51.98,4.5
Berkel en Rodenrijs,51.99,4.47
Oostflakkee,51.6842,4.2664
Waddinxveen,52.033333333,4.633333333
Hellevoetsluis,51.833333333,4.133333333
Noordenveld,53.1333,6.4167
Leek,53.15,6.3833
De Wolden,52.6667,6.4167
Borger-Odoorn,52.8667,6.85
Midden-Drenthe,52.85,6.5
Tynaarlo,53.083333333,6.6
Vlagtwedde,52.9333,7.15
Vlagtwedde,53.0261,7.1117
Lemsterland,52.85,5.716666666
Opsterland,53.0036,6.0664
Tytsjerksteradiel,53.2,6.0
Boornsterhim,53.066944444,5.847222222
De Marne,53.35,6.3667
Marum,53.1333,6.25
Brummen,52.1,6.166666666
Rheden,52.0,6.016666666
Wervershoof,52.7347,5.1492
Voorschoten,52.125,4.445
Loppersum,53.3167,6.7333
Slochteren,53.2167,6.8
Wymbritseradiel,53.016666666,5.616666666
Gaasterland-Sloten,52.8583,5.5242
het Bildt,53.2933,5.6494
Beuningen,51.866666666,5.766666666
Dongeradeel,53.316666666,6.0
Littenseradiel,53.116666666,5.583333333
Markelo,52.234166666,6.495277777
Strijen,51.742222222,4.551388888
Binnenmaas,51.8092,4.5081
Bleiswijk,52.01,4.54
Bleskensgraaf en Hofwegen,51.87083333,4.78444444
Bodegraven-Reeuwijk,52.061778,4.726867
Groningen,53.2167,6.5667
Maasdriel,51.7667,5.3333
Brederwiede,52.679589,5.950475
Dirksland,51.75,4.1
Stavenisse,51.5861,4.0122
Stavenisse,51.5875,4.0125
Molenaarsgraaf,51.8767,4.8231
Eede,51.2467,3.4436
Mijnsheerenland,51.7964,4.4831
Voorhout,52.223055555,4.486388888
Ferwerd,53.3378,5.8247
Oudorp,52.6331,4.7736
Polsbroek,51.9781,4.8519
Maasbree,51.35,6.05
Metslawier,53.36,6.0678
Nunspeet,52.3333,5.7833
Oude IJsselstreek,51.8667,6.3833
Oldebroek,52.4667,5.9167
Lochem,52.15,6.4167
Menterwolde,53.1333,6.8667
Pekela,53.0833,6.98333
Neerijnen,51.8333,5.2833
Hillegom,52.291666666,4.579444444
Druten,51.8889,5.6044
Heumen,51.7656,5.8433
Goeree-Overflakkee,51.75,4.116666666
Papendrecht,51.833333333,4.683333333
Albrandswaard,51.8567,4.4039
Norg,53.0661,6.4594
Westvoorne,51.89,4.0664
Haren en Macharen,51.803095,5.561829
Weurt,51.8833,5.7
Putten,52.257861239,5.607955184
Scherpenzeel,52.079166666,5.489444444
Surhuizum,53.2058,6.1789
Hummelo,52.0031,6.2344
Puiflijk,51.8792,5.5903
Gastel,51.2856,5.5539
Roggel en Neer,51.263333333,5.923055555
Voorthuizen,52.1861,5.6067
Ee,53.33,6.1
Nieuwkoop,52.15,4.766666666
Ouderkerk,51.9764,4.6642
Rijnwoude,52.0944,4.5783
Borsele,51.466666666,3.8
Goes,51.5147,3.8258
Hulst,51.3158,4.0539
Kapelle,51.5,3.95
Middelburg,51.5,3.6167
Noord-Beveland,51.575555555,3.761666666
Reimerswaal,51.4333,4.1167
Schouwen-Duiveland,51.6653,3.8842
Sluis,51.35,3.5
Terneuzen,51.293055555,3.833888888
Tholen,51.5847,4.1211
Veere,51.5469,3.5403
Vlissingen,51.45,3.583333333
Emmen,52.783333333,6.9
Montfort,51.1261,5.9486
Dordrecht,51.795833333,4.678333333
Tilburg,51.57,5.07
Zoetermeer,52.061111111,4.493333333
Ede,52.05,5.666666666
Westland,52.0,4.166666666
Den Haag,52.08,4.31
Leiden,52.154444444,4.494722222
Berkelland,52.1167,6.5167
Nijmegen,51.8475,5.8625
Hattem,52.474444444,6.069722222
Harderwijk,52.350555555,5.617222222
Blokzijl,52.7264,5.9617
Meppel,52.703333333,6.191666666
Drachten,53.1,6.1
Coevorden,52.666666666,6.75
Noordoostpolder,52.71,5.705
Schokland,52.638611111,5.771666666
Winterswijk,51.966666666,6.716666666
Wijchen,51.8067,5.7211
Groenlo,52.05,6.616666666
Kessel,51.2919,6.0533
Buren,51.9106,5.3333
Veendam,53.1,6.866666666
Hoogezand-Sappemeer,53.15,6.75
Stadskanaal,52.986388888,6.958888888
Dieren,52.0521,6.0974
Deil,51.8842,5.2442
Schin op Geul,50.85417,5.86944
Tiel,51.8833,5.4333
Nijkerk,52.2167,5.4833
Edam,52.516666666,5.05
Hasselt,52.590833333,6.091111111
Vreeland,52.2297,5.0311
Almere,52.375833333,5.225555555
Gouda,52.018055555,4.705555555
Loosdrecht,52.2,5.133333333
Oegstgeest,52.166666666,4.466666666
Slenaken,50.7678,5.8622
Mesch,50.7631,5.7328
Rijckholt,50.7994,5.7311
Apeldoorn,52.2167,5.95
Leidschendam-Voorburg,52.09,4.39
Elst,51.9156,5.8378
Lemmer,52.8437,5.7093
Doetinchem,51.966666666,6.283333333
Varsseveld,51.943333333,6.459444444
Barneveld,52.1333,5.5833
Elburg,52.4333,5.85
Doesburg,52.016666666,6.133333333
Lelystad,52.516666666,5.483333333
Alkemade,52.2014,4.5881
Gorssel,52.2,6.2
Geesteren,52.1389,6.5264
Geldermalsen,51.8833,5.2833
Buitenpost,53.25,6.15
Bernisse,51.8275,4.2339
Zederik,51.9333,5.0156
Zeewolde,52.333333333,5.516666666
Zevenaar,51.916666666,6.083333333
Zevenhoven,52.1825,4.7789
Zevenhuizen-Moerkapelle,52.0264,4.5808
Barendrecht,51.85,4.533333333
Terschelling,53.4011,5.3314
Schiedam,51.916666666,4.4
Vlieland,53.2583,4.9558
Schiermonnikoog,53.4892,6.2022
Hoogeveen,52.716666666,6.466666666
Ameland,53.4503,5.7536
Katwijk,52.2008,4.4153
Vlaardingen,51.916666666,4.35
Zuidhorn,53.246808333,6.407694444
Alphen aan den Rijn,52.133333333,4.65
Zoeterwoude,52.1136,4.5058
Ridderkerk,51.866666666,4.6
Skarsterlân,52.9667,5.7833
Driebruggen,52.0433,4.7986
Zuidplas,52.0089,4.6167
Zweeloo,52.7936,6.7303
Epe,52.3333,5.9167
Etten,51.9167,6.3364
Gorinchem,51.830555555,4.974166666
Zwijndrecht,51.82399,4.61258
Zwollerkerspel,52.508614,6.075942
"Soerendonk, Sterksel en Gastel",51.3,5.58333333
Nieuwerkerke,51.7,3.8903
Eemsmond,53.4,6.6667
Sint Joosland,51.473157,3.659842
Winkel,52.7519,4.9036
Ooststellingwerf,52.9875,6.2914
Nieuwlande,51.446946,4.114294
Urk,52.665277777,5.605833333
Aalten,51.925,6.5808
Roxenisse,51.772222,4.047222
Pijnacker-Nootdorp,52.0317,4.415
Vlodrop,51.1333,6.0739
Haps,51.6886,5.8608
Steenderen,52.066666666,6.183333333
Herwen en Aerdt,51.8833,6.1
Cromstrijen,51.7467,4.4461
Aa en Hunze,53.0,6.75
Marken,52.458055555,5.106666666
Abcoude,52.2719,4.9703
Delfzijl,53.333333333,6.916666666
Dronten,52.524166666,5.7125
Bolsward,53.066666666,5.533333333
Lisse,52.259722222,4.561111111
Achtkarspelen,53.216666666,6.133333333
Ubbergen,51.8333,5.9167
Jorwerd,53.145277777,5.711944444
Rozendaal,52.0,5.9667
Voorst,52.2333,6.0833
Klaaskinderkerke,51.73722,3.87056
Leerdam,51.893888888,5.091388888
Dantumadeel,53.28,5.9831
's-Gravenzande,52.0019,4.1647
Wieringermeer,52.85,5.03
Petten,52.7678,4.6583
Noordwijk,52.233333333,4.433333333
Ambt Montfort,51.116666666,5.95
Bedum,53.3,6.6
Brielle,51.904166666,4.163888888
Menaldumadeel,53.216666666,5.666666666
Egmond,52.616388888,4.616388888
Makkum,53.055,5.4036
Nieuwleusen,52.5833,6.2833
Wonseradeel,53.1,5.466666666
Maassluis,51.918888888,4.256666666
Vries,53.0733,6.5769
Oukoop,52.0339,4.7731
Valkenisse,51.4889,3.5156
Valkenisse,51.398,4.071
Staveren,52.8833,5.3583
Wassenaar,52.145277777,4.400555555
Rijswijk,52.045555555,4.33
Smallingerland,53.1,6.1
Boschkapelle,51.325556,3.969444
Ezinge,53.3092,6.4431
Rijnwaarden,51.8667,6.1167
Westervoort,51.966666666,5.966666666
Meeden,53.1389,6.9275
Baambrugge,52.2461,4.9886
Colijnsplaat,51.5986,3.8481
Hendrik-Ido-Ambacht,51.85,4.63
Oud-Vroenhoven,50.847778,5.651389
Anjum,53.3747,6.1272
Zuid-Beijerland,51.7514,4.3678
Heerenveen,52.9658,6.0503
Dronrijp,53.1944,5.6447
Stedum,53.3225,6.6958
Nieuwerkerk aan den IJssel,51.965555555,4.608333333
Hooge en Lage Mierde,51.398563,5.140915
Wamel,51.88,5.4692
Overbetuwe,51.9167,5.85
Nederslingeland,51.866667,4.916667
Grootegast,53.2091,6.2674
Veur,52.083333333,4.433333333
Holwerd,53.3683,5.9006
Duiven,51.9472,6.0211
Brijdorpe,51.7189,3.8744
Heerde,52.4,6.0667
Breukelen,52.1725,4.9986
Oudenrijn,52.0819,5.06
Oudenrijn,52.083333333,5.066666666
Arcen en Velden,51.45,6.183333333
Weesperkarspel,52.3,5.033333
Westerlee,53.145,6.9869
Baarderadeel,53.133333333,5.683333333
West Maas en Waal,51.8503,5.4864
Nijefurd,52.983333333,5.433333333
Mijdrecht,52.2072,4.8594
Bovenkarspel,52.7,5.25
Breukelen-Sint Pieters,52.166666666,5.016666666
Grevenbicht,51.0417,5.7728
Franekeradeel,53.183333333,5.533333333
Lichtenvoorde,51.983333333,6.566666666
Renkum,51.966666666,5.733333333
Haren,53.166666666,6.6
Hekelingen,51.826667,4.342222
Capelle aan den IJssel,51.93567,4.57819
Alblasserdam,51.866666666,4.666666666
Liesveld,51.9156,4.8456
Niedorp,52.7572,4.8728
Termunten,53.2961,7.0436
Krimpen aan den IJssel,51.92,4.6
Zaamslag,51.3125,3.9131
Lingewaard,51.9,5.9
Lingewaal,51.8833,5.1167
Montferland,51.9333,6.15
Neder-Betuwe,51.9333,5.6333
Hardinxveld-Giessendam,51.83,4.87
Jacobswoude,52.2075,4.6853
Middelie,52.5322,5.0172
Streefkerk,51.8994,4.7419
Doornspijk,52.4192,5.8161
Hei- en Boeicop,51.9444,5.0794
Gouderak,51.9842,4.6767
Est en Opijnen,51.829147,5.297899
Wester-Koggenland,52.63,4.95
"Alem, Maren en Kessel",51.795027,5.384331
Liemeer,52.2,4.783333333
Nieuwe Niedorp,52.738041666,4.896188888
Nieuwe Niedorp,52.74,4.89861
Zuidschalkwijk,52.345833,4.641667
Balgoij,51.7803,5.7139
Vleuten,52.1081,5.015
Hoogkerk,53.21666667,6.5
Jaarsveld,51.9694,4.9772
Made,51.6764,4.7925
Reeuwijk,52.0481,4.7203
Callantsoog,52.8372,4.6967
Bruchem,51.7853,5.2367
Heesch,51.731388888,5.53
Loosduinen,52.05306,4.23472
Sexbierum,53.2183,5.4844
Ternaard,53.3806,5.9639
Nes,53.3961,6.0467
Leiderdorp,52.161666666,4.528333333
Vlist,51.9867,4.7889
Budel,51.2725,5.5744
Leerbroek,51.9089,5.0514
Buiksloot,52.3989,4.9221
Bunde,50.8958,5.7331
Ruinen,52.7633,6.3564
IJsselmuiden,52.5647,5.9275
Meijel,51.35,5.883333333
Den Dungen,51.6653,5.3714
Scheemda,53.166666666,6.966666666
Overasselt,51.7597,5.7875
Bergum,53.1922,5.9942
Moordrecht,51.9861,4.6681
Eygelshoven,50.8925,6.0592
Grathem,51.1925,5.8578
Tegelen,51.3422,6.1364
Sevenum,51.416666666,6.033333333
Rozenburg,51.9058,4.2486
Loenen,52.2419,5.0275
Sommelsdijk,51.7547,4.1531
Heeg,52.9692,5.6075
Winsum,53.3312,6.5157
Woudsend,52.9428,5.6275
Woudsend,52.94357,5.62843
Hardegarijp,53.215,5.940277777
Ruurlo,52.083333333,6.45
Helden,51.316666666,6.0
Hummelo en Keppel,52.0,6.233333333
Hontenisse,51.351388888,4.041388888
Maasland,51.933333333,4.266666666
Berlikum,53.2431,5.6514
Graafstroom,51.8833,4.8
Giessenlanden,51.8817,4.8956
Nederlek,51.910555555,4.660555555
Lansingerland,51.9986,4.5039
Meerlo-Wanssum,51.5258,6.0817
Oost Gelre,51.9833,6.5833
Delfshaven,51.907222222,4.448333333
Didam,51.933333333,6.133333333
Zouteveen,51.95,4.33389
Dinxperlo,51.866666666,6.483333333
Gapinge,51.5439,3.6244
Duiveland,51.6494,4.0067
Wisch,51.933333333,6.316666666
Middenschouwen,51.7139,3.8611
Westerschouwen,51.705,3.7403
Mariekerke,51.5281,3.5314
Vinkeveen en Waverveen,52.220833333,4.916666666
Vleuten-De Meern,52.095833333,5.020833333
"Megen, Haren en Macharen",51.81055556,5.56555556
Engelen,51.7208,5.2658
Oldambt,53.15,7.03333333
Kaag en Braassem,52.2025,4.6314
Neede,52.133333333,6.616666666
Teylingen,52.215,4.510277777
Oost-Souburg,51.4636,3.6008
Noorder-Koggenland,52.72,5.07
Súdwest-Fryslân,53.0,5.5444
Giessenburg,51.85,4.8897
Zaltbommel,51.8,5.25
Grou,53.1,5.83
Swalmen,51.233333333,6.033333333
Havelte,52.7739,6.2383
Hengelo,52.05,6.3
Dodewaard,51.910339,5.656758
Assendelft,52.466666666,4.75
Driel,51.9592,5.8131
Velden,51.4117,6.1678
Nederhorst den Berg,52.2567,5.0458
Maasbracht,51.15,5.883333333
Amerongen,52.0025,5.4608
Zelhem,52.00667,6.34861
Ter Aar,52.166666666,4.716666666
Maarn,52.0642,5.3731
Schipluiden,51.983333333,4.316666666
Terborg,51.9203,6.3575
Katendrecht,51.9006,4.4825
Tudderen,51.013889,5.900833
Achttienhoven,52.148333333,5.138888888
Koudekerke,51.4808,3.5528
Melissant,51.7681,4.0761
Ambt Ommen,52.5,6.416667
Rilland,51.4164,4.1808
Linden,51.7483,5.8325
Rinsumageest,53.2967,5.9475
Hemelumer Oldeferd,52.9089,5.47669
Goudriaan,51.9028,4.8881
Tempel,51.96556,4.44611
Bakel en Milheeze,51.5,5.766666666
Maurik,51.96,5.42361
Limbricht,51.0117,5.8369
Katwoude,52.4694,5.0506
Hoog- en Woud-Harnasch,52.002981,4.31767
Varik,51.8233,5.3692
Haskerland,52.951327,5.846786
Gestel en Blaarthem,51.425,5.461667
Oostburg,51.3519,3.4978
Nieuwenhagen,50.9039,6.04
Bakel,51.5025,5.7408
Megen,51.8203,5.5625
Lienden,51.9467,5.5189
Heer Oudelands Ambacht,51.819864,4.619837
Noordeloos,51.9042,4.9417
Stad Delden,52.25,6.7
Ambt Almelo,52.35,6.683333333
Midwolda,53.1928,7.0161
Pol en Panheel,51.171944,5.88202
Wissekerke,51.501437,3.845429
Valburg,51.9111,5.7892
Usquert,53.4028,6.6128
Heeswijk,51.651388888,5.467222222
Hernen,51.8331,5.6806
Zonnemaire,51.7125,3.9508
Avereest,52.6006,6.3908
Buurmalsen,51.8928,5.2925
Sneek,53.0333,5.6667
Klaaswaal,51.7694,4.4453
Ossenisse,51.3883,3.9778
Clinge,51.2706,4.0881
Stiens,53.2608,5.7575
Pannerden,51.89,6.0378
Moergestel,51.55,5.183333
Jutphaas,52.0379,5.09378
Watergraafsmeer,52.349,4.938
Molenwaard,51.8913,4.7718
Oud en Nieuw Gastel,51.584217,4.465256
Oude en Nieuwe Struiten,51.824851,4.14691
Valkenburg-Houthem,50.86567,5.832024
Darthuizen,52.0125,5.3981
Brouwershaven,51.703631,3.947869
Empel en Meerwijk,51.73555556,5.305
Ambt Delden,52.216666666,6.683333333
Deursen en Dennenburg,51.802,5.625
Amby,50.866666666,5.733333333
Dalen,52.7,6.75
Ursem,52.6272,4.8917
Spijk,51.855,5.0078
Onwaard,51.7625,4.1125
Oldeboorn,53.0482,5.8934
Vlijmen,51.6953,5.2119
Sinoutskerke en Baarsdorp,51.47805556,3.85333333
Peize,53.1478,6.4961
Koewacht,51.233333333,3.966666666
Berkenrode,52.35,4.61667
Grubbenvorst,51.4189,6.1431
Roordahuizum,53.1175,5.7842
De Mijl,51.804167,4.645833
Wirdum,53.1497,5.8039
Wieldrecht,51.783333333,4.65
Schoonebeek,52.6617,6.8831
Strijp,51.45538,5.42998
Westdongeradeel,53.380871,5.964203
Hoornaar,51.8767,4.9469
Bath,51.4031,4.2094
Gasselte,52.9719,6.7922
Gasselte,52.9719,6.79222
Haelen,51.23575,5.954675
Augustinusga,53.2172,6.1628
Beilen,52.8567,6.5111
Nunhem,51.2447,5.9611
Achttienhoven,52.146666666,4.856944444
Berghem,51.77,5.5747
Ambt Vollenhove,52.683333,5.983333
Indijk,52.105397,4.940458
Zesgehuchten,51.4211,5.5378
Sappemeer,53.1633,6.7767
Nieuwenhoorn,51.8542,4.1453
Nieuw-Beijerland,51.8119,4.3425
Posterholt,51.1219,6.0378
Hurwenen,51.8106,5.3178
Lent,51.8631,5.8667
Sluis-Aardenburg,51.30937,3.38791
Ammerzoden,51.75,5.22
Achthoven,52.0561,4.9942
Bergharen,51.85,5.6689
Doniawerstal,52.931877777,5.677527777
Burum,53.2736,6.2292
Oude Pekela,53.1025,7.0067
Oude Pekela,53.1,7.01667
Stellendam,51.8047,4.0242
Opijnen,51.8278,5.2983
Hoogvliet,51.866666666,4.35
Gorredijk,53.0033,6.0697
Hoogmade,52.16917,4.58194
Hoogmade,52.1692,4.5822
Herkingen,51.71,4.0872
Bleskensgraaf,51.8719,4.7828
"Vessem, Wintelre en Knegsel",51.4167,5.28333
De Friese Meren,52.925,5.683333333
Duivendijke,51.714167,3.9
Maasdam,51.7881,4.5561
Odijk,52.0503,5.2333
Lange Ruige Weide,52.043728,4.798365
IJzendoorn,51.906388888,5.533055555
Tull en 't Waal,52.0006,5.1331
Reiderland,53.166666666,7.083333333
Reiderland,53.1667,7.08333
Zuilen,52.127222,5.069444
Hooge en Lage Zwaluwe,51.698949,4.724464
Rijsoort en Strevelshoek,51.848055555,4.590833333
Meliskerke,51.5153,3.5119
Heerewaarden,51.8178,5.3917
Nederwetten en Eckart,51.48805556,5.51472222
Asperen,51.8814,5.1067
Peursum,51.85,4.916666666
Zuid-Waddinxveen,52.035096,4.655285
Smilde,52.9486,6.4483
Dinteloord en Prinsenland,51.634428,4.368782
Ackersdijk en Vrouwenregt,51.966667,4.4
Oudhuizen,52.2,4.933333333
Ginneken en Bavel,51.56666667,4.81666667
"Dieden, Demen en Langel",51.81666667,5.61666667
Nieuwpoort,51.9347,4.8681
Rolde,52.9869,6.6461
Rolde,52.9869,6.64611
Wilp,52.2186,6.1497
Hoeven,51.5775,4.580833333
Benthorn,52.0761,4.5625
Hoenkoop,52.015278,4.809167
Ambt Hardenberg,52.55,6.6
Herten,51.1803,5.9633
Herwen,51.883333333,6.1
Almenum,53.18333333,5.43333333
Helvoirt,51.6308,5.2297
Heythuysen,51.249639,5.898286
Vaesrade,50.9292,5.9061
Abcoude-Proostdij,52.270833333,4.980555555
Kollum,53.2792,6.1508
Houtrijk en Polanen,52.383877,4.753261
De Rijp,52.5569,4.8453
Groede,51.3789,3.5069
Duizel en Steensel,51.36916667,5.30861111
Graft,52.5608,4.8339
Aengwirden,53.0,5.916666666
Maire,51.42083,4.15833
Kantens,53.3656,6.6339
Uithuizen,53.4067,6.6722
Snelrewaard,52.033055555,4.916944444
Piershil,51.7933,4.3147
Vlaardinger-Ambacht,51.916666666,4.333888888
Nieuwer-Amstel,52.353333,4.906944
Warder,52.5641,5.0311
Koudum,52.9147,5.4503
Hennaarderadeel,53.108247,5.587234
Nieuwendam,52.3915,4.9341
Rietveld,52.0897,4.8511
Balk,52.8983,5.5783
Menaldum,53.215833,5.660556
Ooltgensplaat,51.6825,4.3492
Ittervoort,51.1719,5.8211
Nieuw-Helvoet,51.8381,4.1297
Wijngaarden,51.8444,4.7611
Andel,51.7839,5.0539
Oudshoorn,52.133333,4.666667
Loenersloot,52.2297,5.0014
Zeeland,51.6967,5.6731
Mildam,52.9361,6.0017
Schellingwoude,52.3844,4.9661
Langweer,52.9578,5.7228
Krimpen aan de Lek,51.89305556,4.6275
Nieuw-Ginneken,51.542705,4.806519
"Drongelen, Haagoort, Gansoijen en Doeveren",51.715,5.05416667
Beugen en Rijkevoort,51.667,5.917
Berkhout,52.6419,4.9969
Bozum,53.0886,5.6958
Barsingerhorn,52.785277777,4.841666666
Berg en Terblijt,50.861119444,5.784469444
Baexem,51.2244,5.88
Willeskop,52.0242,4.9014
Sint Pancras,52.6631,4.7853
Charlois,51.87583,4.48611
Oud-Wulven,52.0444,5.155
Wimmenum,52.6392,4.6558
Spanbroek,52.6981,4.9608
Wilnis,52.1978,4.9
Zuidzande,51.3411,3.4519
Borger,52.9236,6.7922
Marrum,53.3222,5.8014
Utingeradeel,53.048437,5.83786
Leeuwarden,53.2,5.783333333
Warmenhuizen,52.7225,4.7397
Standdaarbuiten,51.612222,4.514444
Joure,52.9661,5.7997
Cabauw,51.9644,4.8983
Kortenhoef,52.2397,5.1147
Waverveen,52.2206,4.8961
Breukelen-Nijenrode,52.166666666,5.0
Ouderkerk aan den IJssel,51.9322,4.6361
Noordgouwe,51.6936,3.9386
Tongelre,51.4483,5.5178
Ambt Doetinchem,51.966667,6.316667
Vlijmen en Engelen,51.7082,5.23739
Ureterp,53.095,6.1689
Maasniel,51.1992,6.0136
Ankeveen,52.2653,5.0989
Avenhorn,52.62,4.9542
Spaarnwoude,52.403888888,4.694166666
Rauwerderhem,53.081666666,5.753055555
Elkerzee,51.725,3.8436
Huisseling en Neerloon,51.787382,5.659161
Scharwoude,52.6225,5.0081
Netterden,51.8544,6.3142
Brandwijk,51.8886,4.8136
Lith,51.8042,5.4408
Waarder,52.0614,4.8225
Ruwiel,52.183333333,4.983333333
Wijk aan Zee en Duin,52.4925,4.6111
Sint Jacobiparochie,53.2728,5.605
Bokhoven,51.7372,5.2319
Chaam,51.5044,4.8614
Abcoude-Baambrugge,52.246111,4.988611
Grosthuizen,52.616666666,4.983333333
Zeelst,51.4231,5.4164
Nieuwkuijk,51.6936,5.1806
Sonnega,52.8669,5.9606
Overschie,51.935,4.42944
Overschie,51.9358,4.42984
Oldekerk,53.219444444,6.338888888
Leende,51.3497,5.5525
Oijen en Teeffelen,51.811586,5.495052
Hillegersberg,51.956272,4.49255
Kampensnieuwland,51.588333,3.669444
Cillaarshoek,51.7706,4.5461
Sint Maartensregt,51.975192,4.31679
Vreeswijk,52.0,5.1
Rilland-Bath,51.416667,4.183333
Huizum,53.191389,5.811389
Giessen-Nieuwkerk,51.849647,4.885969
Maarsseveen,52.1408,5.0736
Oudheusden,51.723056,5.136111
Zuilichem,51.8086,5.1344
Oudkarspel,52.7114,4.8017
Linschoten,52.0628,4.9144
Rijsenburg,52.0436,5.2531
Schiebroek,51.96666667,4.48333333
Heukelum,51.8731,5.0767
Echteld,51.909067,5.498742
Arum,53.1297,5.4753
Nuenen en Gerwen,51.48027778,5.55777778
Dinther,51.645,5.486389
Esch,51.6103,5.2906
Rimburg,50.9169,6.0867
Capelle,51.692222222,4.985277777
Wieringerwaard,52.84,4.8678
Vlierden,51.4456,5.7581
Broek op Langedijk,52.6725,4.8056
Sprang,51.66972222,5.04972222
Weerselo,52.351944,6.857222
Lippenhuizen,53.0169,6.0936
Made en Drimmelen,51.694906,4.798965
Nieuwolda,53.2447,6.9758
De Vuursche,52.2078,5.2433
Lonneker,52.2506,6.9119
Noord-Waddinxveen,52.054167,4.640278
Zuiddorpe,51.2342,3.9017
Oude-Tonge,51.6914,4.2128
Diever,52.8556,6.3175
Ulrum,53.3589,6.3331
Sint Maarten,52.7717,4.7475
Kockengen,52.1517,4.9522
Oosthuizen,52.5708,4.9958
Schore,51.4625,3.9989
Stompwijk,52.0944,4.4697
Den Bommel,51.7153,4.285
Groote Lindt,51.81056,4.62889
Haastrecht,52.0003,4.7765
Ochten,51.9078,5.5678
Seghwaert,52.06667,4.5125
Schoten,52.406944,4.6425
Harlingen,53.183333333,5.433333333
Werkhoven,52.0239,5.2431
"Oploo, Sint Anthonis en Ledeacker",51.624624,5.872879
Jelsum,53.2344,5.7844
Stormpolder,51.9117,4.5744
Wanroij,51.6561,5.82
Siddeburen,53.2486,6.8644
Eenrum,53.3625,6.460556
Reek,51.7447,5.6831
Nieuw-Vossemeer,51.5897,4.2181
Ransdorp,52.3931,4.9942
Kijfhoek,51.8256,4.5922
Zalk en Veecaten,52.52056,6.00833
Goudswaard,51.7936,4.2783
Buggenum,51.2314,5.9825
Den Ham,52.465,6.4942
Hallum,53.3064,5.7856
Heer,50.840556,5.726944
Horssen,51.8556,5.6086
Oud-Alblas,51.8569,4.7047
Oterleek,52.633333333,4.841666666
Maashees en Overloon,51.57222222,5.98277778
Kedichem,51.86,5.0503
Tjalleberd,52.9978,5.9436
Groeneveld,52.016666666,4.316666666
Wittem,50.8133,5.9122
Marsum,53.3397,6.8756
Barradeel,53.217,5.517
Wijdewormer,52.4894,4.8733
Wijdewormer,52.50024,4.89244
Sint Anna ter Muiden,51.314444444,3.364166666
"Hoogeloon, Hapert en Casteren",51.4,5.266666666
Emmikhoven en Waardhuizen,51.783,4.983
Kerkwijk,51.7744,5.2194
Strijensas,51.7158,4.5861
Schellinkhout,52.6342,5.1203
Dalem,51.827777777,5.009444444
Besoyen,51.68333333,5.05
Lithoijen,51.8025,5.4633
Minnertsga,53.2508,5.595
Winssen,51.8833,5.7
Oirsbeek,50.9489,5.9089
Tjerkwerd,53.0419,5.5011
Obbicht en Papenhoven,51.03454,5.782242
Zevenhuizen,52.0108,4.58
Bierum,53.3814,6.8594
Sint Pieter,50.8258,5.6861
Elden,51.9575,5.8819
Strucht,50.85,5.866666666
Aalst,51.3964,5.4767
Huijbergen,51.4325,4.3744
Abstede,52.083333,5.130556
Schimmert,50.9056,5.8219
Vinkeveen,52.2128,4.9272
Meerlo,51.5119,6.0856
Noordwolde,52.8914,6.1422
Stolwijk,51.9736,4.7711
Beetsterzwaag,53.0611,6.0775
Biert,51.8269,4.2711
Barwoutswaarder,52.0825,4.8636
Nederhemert,51.7628,5.1617
Nederhemert,51.76518,5.16817
Oosterwolde,52.9903,6.2914
Stramproy,51.1933,5.7192
De Vennip,52.268367,4.629021
Rotterdam,51.95,4.416666666
Kleverskerke,51.5189,3.6631
Berkel-Enschot,51.5825,5.1428
Langezwaag,52.9831,6.0044
Hedikhuizen,51.7356,5.1839
Laagnieuwkoop,52.1322,4.9836
Venhuizen,52.662444,5.2
Odoorn,52.8508,6.8481
Eversdijk,51.47,3.95306
Nijland,53.0508,5.5756
Sluipwijk,52.0553,4.7419
Kwadijk,52.5275,4.9811
Stiphout,51.4858,5.6181
Dantumawoude,53.290638888,6.011583333
Schalkwijk,51.9939,5.1872
Westmaas,51.783333333,4.466666666
Ubach over Worms,50.9158,6.0517
Wemeldinge,51.5175,3.9956
Stad Vollenhove,52.6816,5.95184
Heel en Panheel,51.1774,5.88421
Oostvoorne,51.9119,4.1008
Oudelande,51.4083,3.8536
Noord-Polsbroek,51.977777777,4.848888888
Zuidwijk,52.06749,4.66807
Duist,52.216968,5.383644
Teckop,52.1333,4.9214
Teckop,52.133333,4.921389
Oude Niedorp,52.7178,4.8719
Herveld,51.8989,5.7475
Vrouwenparochie,53.2797,5.7003
Prinsenbeek,51.5981,4.7136
Herpen,51.7717,5.6417
Gassel,51.7403,5.7803
Haarzuilens,52.1214,4.9964
Deurne en Liessel,51.45,5.8
Meerkerk,51.92,4.9942
Vrijhoeve-Capelle,51.6667,5.03333
Goidschalxoord,51.827777777,4.458333333
Kats,51.5672,3.8856
Veldhoven en Meerveldhoven,51.4,5.391667
Hoogwoud,52.7153,4.9367
Dreumel,51.8492,5.4325
Alphen en Riel,51.5,4.983333
Noorddijk,53.245,6.6264
Koedijk,52.675,4.7483
Waardenburg,51.8322,5.2558
Westkerke,51.5364,4.0942
Afferden,51.8786,5.6333
's-Gravenambacht,51.888333,4.415278
's-Gravenhoek,51.591111,3.779167
's-Gravesloot,52.095,4.879167
't Woud,51.995477,4.293358
Abtsregt,51.988889,4.386111
Sint Annaparochie,53.2764,5.6572
Twello,52.2333,6.1022
Ameide,51.9539,4.9625
Amstenrade,50.9383,5.9222
Melick en Herkenbosch,51.157923,6.040249
Cuijk en Sint Agatha,51.71666667,5.88333333
Sint Kruis,51.2731,3.4997
Neeritter,51.1644,5.8036
Sterkenburg,52.02232,5.28262
Sterkenburg,52.0233,5.2836
Wulverhorst,52.064166666,4.891666666
Sint Anthoniepolder,51.7972,4.5333
Cothen,51.9961,5.3097
Oudenhoorn,51.8269,4.1917
Drunen,51.683333333,5.166666666
IJlst,53.008611,5.624444
Batenburg,51.8233,5.6278
Berkenwoude,51.9453,4.7089
Nieuwe Pekela,53.0786,6.9642
Nieuwe Pekela,53.0833,6.98333
Bladel en Netersel,51.383333333,5.216666666
Blankenham,52.7647,5.8964
Blija,53.3517,5.8611
Bommenede,51.734444,3.978889
Borkel en Schaft,51.2975,5.4417
Borssele,51.4231,3.7353
Strevelshoek,51.853889,4.581667
Rossum,51.8,5.33333333
Rossum,51.8008,5.3356
Rosmalen,51.7192,5.3672
Oostdongeradeel,53.354035,6.081276
Waspik,51.6867,4.9444
Koudekerk aan den Rijn,52.1347,4.6019
Broek,52.015,4.6797
Noord-Scharwoude,52.700556,4.810278
Noord-Scharwoude,52.7006,4.8103
Broek in Waterland,52.4361,4.9942
Broek in Waterland,52.43417,4.99583
Broekhuizen,51.4853,6.1633
Broeksittard,51.0,5.883333333
Twisk,52.7403,5.0517
Buttinge en Zandvoort,51.518304,3.573174
Stoutenburg,52.1539,5.4325
Stad aan 't Haringvliet,51.7392,4.2419
Capelle en Botland,51.65,3.966667
Everdingen,51.9647,5.1564
Catharijne,52.089722222,5.111666666
Moerkapelle,52.0456,4.5753
Zwammerdam,52.1058,4.7272
Hardinxveld,51.8256,4.8381
Stad Ommen,52.5333,6.41667
Fijnaart en Heijningen,51.63805,4.470406
Hoogblokland,51.8742,4.975
Maasbommel,51.820833333,5.536388888
Drongelen,51.715,5.0542
Drongelen,51.7161,5.05361
Baardwijk,51.691944,5.095556
Poortugaal,51.8553,4.3967
Gieten,53.0053,6.7631
Schelluinen,51.8425,4.9258
Ottoland,51.8931,4.8756
Veessen,52.3761,6.0892
Diessen,51.4739,5.1747
Nijbroek,52.292778,6.0625
Nijeveen,52.7328,6.1675
Vierpolders,51.8783,4.1794
Zwartewaal,51.8833,4.2208
Veenwouden,53.2372,5.9853
Oldehove,53.3025,6.392778
Langbroek,52.0122,5.3269
Rauwerd,53.0981,5.7592
Udenhout,51.6094,5.1403
Spaubeek,50.9378,5.8414
Wanneperveen,52.7044,6.1206
Schoterland,52.945742,5.957336
Merkelbeek,50.9542,5.9403
Wanssum,51.5358,6.0753
Giessen,51.7886,5.0328
Hemmen,51.9339,5.7006
Oenkerk,53.2533,5.8983
Olst,52.3378,6.1108
Domburg-Binnen,51.56361111,3.49777778
Domburg-Buiten,51.54777778,3.48583333
Verwolde,52.20056,6.39194
Ellemeet,51.7297,3.8164
Ellewoutsdijk,51.3903,3.8158
Erp,51.6003,5.6053
Geervliet,51.8611,4.2622
Kattendijke,51.5228,3.9433
Uithuizermeeden,53.4144,6.7264
Zegveld,52.1161,4.8347
Hefshuizen,53.415364,6.700459
Ophemert,51.8453,5.3842
Lobith,51.8617,6.1181
Wijk en Aalburg,51.7542,5.1306
Holten,52.281388888,6.418611111
Vaassen,52.2881,5.9694
Hoogelande,51.5067,3.5608
Urmond,50.9906,5.7711
Schoonrewoerd,51.9206,5.1158
Grijpskerke en Poppendamme,51.5281,3.55751
Groet,52.7231,4.6681
Groot-Ammers,51.9236,4.8206
Steenwijkerwold,52.8036,6.0617
Nigtevecht,52.2742,5.0278
Vriezenveen,52.4117,6.6256
Haarlemmerliede,52.3881,4.6875
Veen,51.7769,5.1097
Hazerswoude,52.1,4.583333333
Heer en Keer,50.8329,5.74302
Hekendorp,52.0153,4.8092
Herpt,51.733333,5.15
Hofwegen,51.866666666,4.783333333
Lekkerkerk,51.8972,4.6828
Stad Hardenberg,52.5756,6.61881
Idaarderadeel,53.127513,5.860176
Kortgene,51.5583,3.8
Oosterzee,52.8744,5.7731
Waterlandkerkje,51.3175,3.5539
Kamerik-Houtdijken,52.109036111,4.912261111
Stoppeldijk,51.3219,3.9856
Kleine-Lindt,51.8294,4.575
Laagblokland,51.890716,4.846687
Gemert,51.554022,5.691089
Leeuwen,51.8842,5.52939
Leeuwen,51.88583333,5.53194444
Lierop,51.4178,5.6819
Princenhage,51.5763,4.7394
Loenen en Wolferen,51.88333333,5.78333333
Maarssenbroek,52.1339,5.0264
Westwoud,52.6864,5.1333
Meerdervoort,51.808333,4.641667
"Meeuwen, Hill en Babyloniënbroek",51.7411,5.02006
Midwoud,52.7178,5.0736
"Naters, Netherlands",51.877922,4.115753
"Nieuwland, Kortland en 's-Graveland",51.9212,4.39131
Ooij en Persingen,51.85444444,5.94166667
"Oost-, West- en Middelbeers",51.468019444,5.250605555
Opperdoes,52.7597,5.0781
Oud- en Nieuw-Mathenesse,51.91333333,4.41944444
Portengen,52.1558,4.9633
Raamsdonk,51.6878,4.9081
Rengerskerke en Zuidland,51.66916667,3.86944444
Rijnsaterwoude,52.1986,4.6694
Rijsbergen,51.516666666,4.7
Rilland en Bath,51.4095,4.19781
Roosendaal en Nispen,51.50543,4.462337
Ruiven,51.995278,4.398611
Sambeek,51.6361,5.9661
Zevender,51.9611,4.8803
Sandelingen-Ambacht,51.84583333,4.61666667
Schuddebeurs en Simonshaven,51.82222222,4.3
Sint Anthonis en Ledeacker,51.63187,5.876827
Soerendonk en Sterksel,51.303145,5.574188
Stad Doetinchem,51.9655,6.28894
Stad Almelo,52.354522222,6.666180555
Stichts Loenen,52.2061,4.99741
Velp,51.747777777,5.717222222
Vrijhoeven,52.154167,4.719444
Vrije en Lage Boekhorst,52.1958,4.55
Westkapelle-Binnen,51.529305,3.440909
Windeweer,53.116667,6.783333
Zuid-Polsbroek,51.976263888,4.851880555
Zuid-Scharwoude,52.6842,4.8081
Zuid- en Noord-Schermer,52.5881,4.82167
Zuidland,51.8219,4.2581
Hardenberg,52.5667,6.6
Alphen,52.12833333,4.65361111
IJsselmonde,51.9,4.55
Oost-Barendrecht,51.8525,4.54861111
Oosterbroek,53.129856,6.873794
West-Barendrecht,51.8592,4.52639
Roermond,51.2,5.983333333
Kralingen,51.92487,4.50709
Obdam,52.674258,4.899467
Denekamp,52.413072,6.973572
Ewijk,51.883333333,5.7
Heel,51.18056,5.89639
Hunsel,51.174178,5.800781
Putte,51.3506,4.39778
Wognum,52.681944,5.022778
Rijswijk,51.7975,5.0236
Kessel,51.8036,5.4042
Maren,51.7917,5.3797
"Dussen, Munster en Muilkerk",51.7317,4.9633
Dussen,51.7317,4.9633
Bussum,52.27333,5.16111
Naarden,52.295277777,5.162222222
Wonseradeel,53.1,5.466666666
Witmarsum,53.1019,5.4672
"Heesbeen, Eethen en Genderen",51.7353,5.0878
Genderen,51.7353,5.0878
Graauw en Langendam,51.3278,4.1022
Wommels,53.10883,5.58749
Bourtange,53.0067,7.1917
Land van Cuijk,51.6,5.8
Giethoorn,52.739722222,6.0775
's-Gravendeel,51.783333333,4.616666666
Bangert,52.666666666,5.166666666
Korendijk,51.7592,4.3122
Midden-Delfland,51.9622,4.2997
Cadier,50.833333,5.766667
Vliet,52.0908,4.40972
Nissewaard,51.83716,4.2754
Kamerik-Mijzijde,52.143056,4.885833
Borgharen,50.878056,5.688333
Zutphen,52.1333,6.2
Hof van Delft,52.004164,4.345436
Vrijenban,52.017778,4.352778
Krimpenerwaard,51.9822,4.78167
Margraten,50.8225,5.82028
Itteren,50.8958,5.70472
Reusel,51.3617,5.16306
Bemelen,50.83333333,5.75
Sint Geertruid,50.7964,5.76556
Noorbeek,50.7681,5.81306
Mheer,50.782777777,5.793055555
Wijlre,50.816666666,5.883333333
Klimmen,50.876388888,5.881944444
Geulle,50.9225,5.750277777
Elsloo,50.970966666,5.754088888
Berg en Dal,51.8292,5.92583
Gronsveld,50.808611111,5.73
Ravenstein,51.783333,5.65
Gulpen,50.8,5.883333333
Gooise Meren,52.283333333,5.166666666
Meierijstad,51.616944444,5.548055555
Veldhuizen,52.076389,5.0075
Stein,52.0,4.78333
Kethel en Spaland,51.9439,4.38694
Kampen,52.55,5.9
Midden-Groningen,53.184722,6.811111
Woensel,51.483333,5.466667
Waadhoeke,53.1875,5.54
Westerwolde,53.091904,7.126865
Franekeradeel,53.15,5.55
Het Hogeland,53.4136,6.5273
Altena,51.766666666,4.966666666
Cadier en Keer,50.82833333,5.76777778
Eijsden,50.777778,5.710833
Vijfheerenlanden,51.9303,5.0533
Noardeast-Fryslân,53.334722222,6.047222222
Beekdaelen,50.942888888,5.886611111
Westerkwartier,53.2249,6.3528
Leens,53.3608699,6.3877704
West Betuwe,51.883333333,5.283333333
Eibergen,52.1,6.65
Jabeek,50.981667,5.941389
Muiden,52.32758,5.07912
Vollenhove,52.68333333,5.98333333
Bergambacht,51.93141,4.75597
Blokker,52.664359,5.106068
Middelharnis,51.75347222,4.16469444
Franeker,53.1875,5.54
Grijpskerke,51.5339,3.5617
Molenlanden,51.8947,4.8597
Luyksgestel,51.29,5.3239
Sint-Oedenrode,51.5637,5.46537
Hoeksche Waard,51.766666666,4.466666666
Jisp,52.5,4.833333333
Eemsdelta,53.333333333,6.833333333
Dijk en Waard,52.666666666,4.833333333
Bergeyk,51.3203,5.3592
Riethoven,51.3536,5.3864
Middelburg,52.0569,4.6817
Boskoop,52.066666666,4.633333333
Wieringen,52.9,4.97
